{
"type": "FeatureCollection",
"name": "Creches",
"crs": { "type": "name", "properties": { "name": "urn:ogc:def:crs:OGC:1.3:CRS84" } },
"features": [
{ "type": "Feature", "properties": { "Name": "Creche CEDIAS", "alunos": "268.0", "endereco": "Rua Ibicuí, s/n°", "bairro": "Parque Tietê", "gps": "-22.78721830773495, -43.33417037343221", "tipo": "Creche", "lat": -22.78721830773495, "lon": -43.334170373432208, "descricao": null, "urlimg": "" }, "geometry": { "type": "Point", "coordinates": [ -43.33417, -22.787218, 0.0 ] } },
{ "type": "Feature", "properties": { "Name": "Creche Criança Feliz", "alunos": "182.0", "endereco": "Rua Fernandes Queiroz c/ Rua Porto Alegre, s/n°", "bairro": "Jardim Metrópole", "gps": "-22.761673500954085, -43.34132213340145", "tipo": "Creche", "lat": -22.761673500954085, "lon": -43.341322133401448, "descricao": null, "urlimg": "" }, "geometry": { "type": "Point", "coordinates": [ -43.341322, -22.761674, 0.0 ] } },
{ "type": "Feature", "properties": { "Name": "CRECHE DA VILA SÃO JOÃO", "alunos": "172.0", "endereco": "Av. Alberto de Oliveira, S/N", "bairro": "Vila São João", "gps": "-22.767393613836564, -43.35362258903273", "tipo": "Creche", "lat": -22.767393613836564, "lon": -43.353622589032732, "descricao": null, "urlimg": "" }, "geometry": { "type": "Point", "coordinates": [ -43.353623, -22.767394, 0.0 ] } },
{ "type": "Feature", "properties": { "Name": "Creche Emani do Amaral Peixoto", "alunos": "132.0", "endereco": "Rua Paulo de Frontin, 878", "bairro": "Vila Jurandir", "gps": "-22.787739077146988, -43.400768702267605", "tipo": "Creche", "lat": -22.787739077146988, "lon": -43.400768702267605, "descricao": null, "urlimg": "" }, "geometry": { "type": "Point", "coordinates": [ -43.400769, -22.787739, 0.0 ] } },
{ "type": "Feature", "properties": { "Name": "Creche Favo de Mel", "alunos": "327.0", "endereco": "Av. Dr. Arruda Negreiros, s/n° esquina c/ Rua Sumidouro Lt 5 a 8", "bairro": "Coelho da Rocha", "gps": "-22.77304866774776, -43.39096441945607", "tipo": "Creche", "lat": -22.773048667747759, "lon": -43.390964419456068, "descricao": null, "urlimg": "" }, "geometry": { "type": "Point", "coordinates": [ -43.390964, -22.773049, 0.0 ] } },
{ "type": "Feature", "properties": { "Name": "Creche Lindaura Amorim", "alunos": "357.0", "endereco": "Rua Pastor Joaquim Rosa, 499", "bairro": "Jardim Meriti", "gps": "-22.77910804679399, -43.369341659938485", "tipo": "Creche", "lat": -22.77910804679399, "lon": -43.369341659938485, "descricao": null, "urlimg": "" }, "geometry": { "type": "Point", "coordinates": [ -43.369342, -22.779108, 0.0 ] } },
{ "type": "Feature", "properties": { "Name": "Creche Maria Alves Lavouras", "alunos": "112.0", "endereco": "Rua Olaria, s/n°", "bairro": "Centro", "gps": "-22.806316318091618, -43.37228042925516", "tipo": "Creche", "lat": -22.806316318091618, "lon": -43.372280429255163, "descricao": null, "urlimg": "" }, "geometry": { "type": "Point", "coordinates": [ -43.37228, -22.806316, 0.0 ] } },
{ "type": "Feature", "properties": { "Name": "Creche Maria Ferreira Filgueiras", "alunos": "195.0", "endereco": "Rua Aragui c/ Rua Visconde de Niterói, s/n°", "bairro": "Jardim Metrópole", "gps": "-22.768547652377197, -43.33342116178568", "tipo": "Creche", "lat": -22.768547652377197, "lon": -43.333421161785679, "descricao": null, "urlimg": "" }, "geometry": { "type": "Point", "coordinates": [ -43.333421, -22.768548, 0.0 ] } },
{ "type": "Feature", "properties": { "Name": "Creche Prof. Antenor Lopes Martins", "alunos": "179.0", "endereco": "Rua Maria Gama S/N", "bairro": "Tomazinho", "gps": "-22.801055699357356, -43.40044115809072", "tipo": "Creche", "lat": -22.801055699357356, "lon": -43.400441158090722, "descricao": null, "urlimg": "" }, "geometry": { "type": "Point", "coordinates": [ -43.400441, -22.801056, 0.0 ] } },
{ "type": "Feature", "properties": { "Name": "Creche Renascer", "alunos": "114.0", "endereco": "Avenida Sarapuí, s/n° esquina Avenida Pasteur", "bairro": "Parque Alian", "gps": "-22.765751, -43.3776272", "tipo": "Creche", "lat": -22.765751, "lon": -43.3776272, "descricao": null, "urlimg": "" }, "geometry": { "type": "Point", "coordinates": [ -43.377627, -22.765751, 0.0 ] } },
{ "type": "Feature", "properties": { "Name": "Creche Rosa de Oliveira Muiller", "alunos": "321.0", "endereco": "Rua Montevidéu, nº 91", "bairro": "Vilar dos Teles", "gps": "-22.765724218438063, -43.3713366809448", "tipo": "Creche", "lat": -22.765724218438063, "lon": -43.3713366809448, "descricao": null, "urlimg": "" }, "geometry": { "type": "Point", "coordinates": [ -43.371337, -22.765724, 0.0 ] } },
{ "type": "Feature", "properties": { "Name": "Creche Santa Clara", "alunos": "134.0", "endereco": "Estrada São João Caxias 122", "bairro": "Centro", "gps": "-22.801218268240614, -43.354055997217806", "tipo": "Creche", "lat": -22.801218268240614, "lon": -43.354055997217806, "descricao": null, "urlimg": "" }, "geometry": { "type": "Point", "coordinates": [ -43.354056, -22.801218, 0.0 ] } },
{ "type": "Feature", "properties": { "Name": "CRECHE VALDER VERMELHO", "alunos": "335.0", "endereco": "Rua Ana Brito da Silva, nº 300", "bairro": "São Mateus", "gps": "-22.8057705378236, -43.38626787343182", "tipo": "Creche", "lat": -22.805770537823602, "lon": -43.386267873431819, "descricao": null, "urlimg": "" }, "geometry": { "type": "Point", "coordinates": [ -43.386268, -22.805771, 0.0 ] } },
{ "type": "Feature", "properties": { "Name": "Creche Vereador Benilton Ferreira Paes", "alunos": "198.0", "endereco": "Rua Galdencio Miguel,222", "bairro": "Jardim Meriti", "gps": "-22.78211175956485, -43.37048397712658", "tipo": "Creche", "lat": -22.782111759564849, "lon": -43.370483977126582, "descricao": null, "urlimg": "" }, "geometry": { "type": "Point", "coordinates": [ -43.370484, -22.782112, 0.0 ] } },
{ "type": "Feature", "properties": { "Name": "Jardim Infância Municipalizado PIPA", "alunos": "187.0", "endereco": "Rua Anchieta s/n°", "bairro": "Praça da Bandeira", "gps": "-22.770041325674978, -43.37434571945637", "tipo": "Creche", "lat": -22.770041325674978, "lon": -43.374345719456372, "descricao": null, "urlimg": "" }, "geometry": { "type": "Point", "coordinates": [ -43.374346, -22.770041, 0.0 ] } }
]
}
