{
"type": "FeatureCollection",
"name": "Praças",
"crs": { "type": "name", "properties": { "name": "urn:ogc:def:crs:OGC:1.3:CRS84" } },
"features": [
{ "type": "Feature", "properties": { "Name": "Praça Jardim Metrópole (DPO)", "Ruas": "Av. do Comércio / Rua Visconde da Gávea" }, "geometry": { "type": "Point", "coordinates": [ -43.3319277, -22.7645444, 0.0 ] } },
{ "type": "Feature", "properties": { "Name": "Praça N. S. da Penha", "Ruas": "Rua Santa Teresinha / Rua Gama Cruz" }, "geometry": { "type": "Point", "coordinates": [ -43.3367125, -22.7626212, 0.0 ] } },
{ "type": "Feature", "properties": { "Name": "Praça Porto Alegre", "Ruas": "Rua Dona Clara / Rua Fernandes de Queiros" }, "geometry": { "type": "Point", "coordinates": [ -43.3420017, -22.7631227, 0.0 ] } },
{ "type": "Feature", "properties": { "Name": "Praça Dona Clara", "Ruas": "Av. Dep. Ulisses Guimarães / Rua Dona Clara" }, "geometry": { "type": "Point", "coordinates": [ -43.341269, -22.7664424, 0.0 ] } },
{ "type": "Feature", "properties": { "Name": "Praça José Maria Fernandes Filho", "Ruas": "Av. Dep. Ulisses Guimarães / Av. Madrid" }, "geometry": { "type": "Point", "coordinates": [ -43.3357183, -22.7650977, 0.0 ] } },
{ "type": "Feature", "properties": { "Name": "Praça Manoel Gonçalo", "Ruas": "Av. Madrid / Av. Paris" }, "geometry": { "type": "Point", "coordinates": [ -43.3351344, -22.7681032, 0.0 ] } },
{ "type": "Feature", "properties": { "Name": "Praça Cândida de Nascimento Oliveira", "Ruas": "Rua São Miguel / Rua Dona Clara" }, "geometry": { "type": "Point", "coordinates": [ -43.3430455, -22.761394, 0.0 ] } },
{ "type": "Feature", "properties": { "Name": "Praça da Alegria", "Ruas": "Rua Rio Bonito / Rua Doricos" }, "geometry": { "type": "Point", "coordinates": [ -43.3435947, -22.7636272, 0.0 ] } },
{ "type": "Feature", "properties": { "Name": "Quadra Jardim Noia", "Ruas": "Av. Transamazônica / Rua Manaus" }, "geometry": { "type": "Point", "coordinates": [ -43.3509726, -22.7619679, 0.0 ] } },
{ "type": "Feature", "properties": { "Name": "Praça Alberto de Oliveira", "Ruas": "Rua Orlando Caldellas Santos / Rua Alberto de Oliveira" }, "geometry": { "type": "Point", "coordinates": [ -43.3499282, -22.7627924, 0.0 ] } },
{ "type": "Feature", "properties": { "Name": "Praça Jardim Metrópole", "Ruas": "Av. do Comércio / Rua Bolivar Carvalho" }, "geometry": { "type": "Point", "coordinates": [ -43.3300342, -22.7640247, 0.0 ] } },
{ "type": "Feature", "properties": { "Name": "Praça Trezentos", "Ruas": "Av. Miguel Couto / Av. João Venâncio Rosa" }, "geometry": { "type": "Point", "coordinates": [ -43.3375804, -22.7775271, 0.0 ] } },
{ "type": "Feature", "properties": { "Name": "Praça Palmerina Palmeira Leite", "Ruas": "Rua Barão da Torre / Rua Alvorada" }, "geometry": { "type": "Point", "coordinates": [ -43.3376592, -22.7785091, 0.0 ] } },
{ "type": "Feature", "properties": { "Name": "Praça Vereador Delso Geraldo", "Ruas": "Av. Miguel Couto / Rua Alvorada" }, "geometry": { "type": "Point", "coordinates": [ -43.3376842, -22.7777291, 0.0 ] } },
{ "type": "Feature", "properties": { "Name": "Praça São Teodorico", "Ruas": "Rua Teles de Menezes / Rua Luis Menzes" }, "geometry": { "type": "Point", "coordinates": [ -43.3390571, -22.7837611, 0.0 ] } },
{ "type": "Feature", "properties": { "Name": "Quadra Tibiriça", "Ruas": "Estrada das Pedrinhas / Rua Magno" }, "geometry": { "type": "Point", "coordinates": [ -43.3375856, -22.7839081, 0.0 ] } },
{ "type": "Feature", "properties": { "Name": "Praça São Jerônimo", "Ruas": "Rua Ana Menezes Santos / Rua Guilhermina Menezes" }, "geometry": { "type": "Point", "coordinates": [ -43.3404865, -22.7851864, 0.0 ] } },
{ "type": "Feature", "properties": { "Name": "Praça São José", "Ruas": "Rua Ana Menezes Santos / Rua Ismênia de Menezes" }, "geometry": { "type": "Point", "coordinates": [ -43.3393957, -22.7845518, 0.0 ] } },
{ "type": "Feature", "properties": { "Name": "Praça do Embaixador", "Ruas": "Estrada das Acácias / Estrada Paineiras" }, "geometry": { "type": "Point", "coordinates": [ -43.3394732, -22.7760702, 0.0 ] } },
{ "type": "Feature", "properties": { "Name": "Praça Pedra Ruiva", "Ruas": "Rua Pedra Negra / Rua Lídice" }, "geometry": { "type": "Point", "coordinates": [ -43.3344114, -22.7846653, 0.0 ] } },
{ "type": "Feature", "properties": { "Name": "Praça Nobel", "Ruas": "Rua Luiz Gama / Rua Ibicuí" }, "geometry": { "type": "Point", "coordinates": [ -43.3342645, -22.7876204, 0.0 ] } },
{ "type": "Feature", "properties": { "Name": "Praça Saí Tietê", "Ruas": "Rua Neves / Av. Presidente Castelo Branco" }, "geometry": { "type": "Point", "coordinates": [ -43.3317639, -22.7908155, 0.0 ] } },
{ "type": "Feature", "properties": { "Name": "Praça Araruama", "Ruas": "Rua Dionísio Rocha / Rua Tubiacanga" }, "geometry": { "type": "Point", "coordinates": [ -43.3368913, -22.7940175, 0.0 ] } },
{ "type": "Feature", "properties": { "Name": "Complexo Esportivo Parque Araruama", "Ruas": "Rua Colorado / Rua Iracema" }, "geometry": { "type": "Point", "coordinates": [ -43.3399014, -22.7941292, 0.0 ] } },
{ "type": "Feature", "properties": { "Name": "Praça Analândia", "Ruas": "Rua Venceslau de Azambuja / Rua Dr. Miguel Alcântara" }, "geometry": { "type": "Point", "coordinates": [ -43.3338045, -22.7976709, 0.0 ] } },
{ "type": "Feature", "properties": { "Name": "Praça Mara", "Ruas": "Rua Venceslau de Azambuja / Rua Nicador Lamas" }, "geometry": { "type": "Point", "coordinates": [ -43.3333589, -22.8002434, 0.0 ] } },
{ "type": "Feature", "properties": { "Name": "Ponto 29", "Ruas": "" }, "geometry": { "type": "Point", "coordinates": [ -43.3366409, -22.8003527, 0.0 ] } },
{ "type": "Feature", "properties": { "Name": "Praça Daniel Simões *", "Ruas": "Rua Manuel Paz de Oliveira / Rua Fausto País de Oliveira" }, "geometry": { "type": "Point", "coordinates": [ -43.3363045, -22.7992931, 0.0 ] } },
{ "type": "Feature", "properties": { "Name": "Praça Elvira", "Ruas": "Rua Kemper" }, "geometry": { "type": "Point", "coordinates": [ -43.3385709, -22.801005, 0.0 ] } },
{ "type": "Feature", "properties": { "Name": "Praça Acesso Parque Araruama", "Ruas": "Av. Estácio de Sá / Rua Sr. do Bomfim" }, "geometry": { "type": "Point", "coordinates": [ -43.3417654, -22.7947635, 0.0 ] } },
{ "type": "Feature", "properties": { "Name": "Praça Vermelha", "Ruas": "Travessa Gil Queiroz / Rua Irani" }, "geometry": { "type": "Point", "coordinates": [ -43.3355457, -22.8020206, 0.0 ] } },
{ "type": "Feature", "properties": { "Name": "Praça Fluminense", "Ruas": "Av. Euclides da Cunha / Av. Casimiro de Abreu" }, "geometry": { "type": "Point", "coordinates": [ -43.353013, -22.7666937, 0.0 ] } },
{ "type": "Feature", "properties": { "Name": "Praça Jumbo", "Ruas": "Rua Maj. Nei Brito / Rua Luci Barbosa" }, "geometry": { "type": "Point", "coordinates": [ -43.3608321, -22.7639215, 0.0 ] } },
{ "type": "Feature", "properties": { "Name": "Praça José Santaroni", "Ruas": "Rua Imbuí / Rua Itamogi" }, "geometry": { "type": "Point", "coordinates": [ -43.3642079, -22.765879, 0.0 ] } },
{ "type": "Feature", "properties": { "Name": "Praça Brasil (Campo Trio de Ouro)", "Ruas": "Rua Assunção / Rua Bogotá" }, "geometry": { "type": "Point", "coordinates": [ -43.367125, -22.7674241, 0.0 ] } },
{ "type": "Feature", "properties": { "Name": "Praça Belém", "Ruas": "Rua Silva Jardim / Rua Ernesto Muniz" }, "geometry": { "type": "Point", "coordinates": [ -43.3724735, -22.7668825, 0.0 ] } },
{ "type": "Feature", "properties": { "Name": "Praça Cuiabá", "Ruas": "Rua Silva Jardim / Rua Barão de Mauá" }, "geometry": { "type": "Point", "coordinates": [ -43.3743793, -22.7686241, 0.0 ] } },
{ "type": "Feature", "properties": { "Name": "Praça Duque de Caxias", "Ruas": "Rua Duque de Caxias / Rua Gonçalves Dias" }, "geometry": { "type": "Point", "coordinates": [ -43.3776359, -22.7707182, 0.0 ] } },
{ "type": "Feature", "properties": { "Name": "Praça da Bandeira", "Ruas": "Av. Comendador Teles / Rua Fenícia" }, "geometry": { "type": "Point", "coordinates": [ -43.3724138, -22.7715461, 0.0 ] } },
{ "type": "Feature", "properties": { "Name": "Praça Jordelina Miranda Cachoeira", "Ruas": "Rua Itapira / Rua Benedito Loureiro" }, "geometry": { "type": "Point", "coordinates": [ -43.3662198, -22.7709427, 0.0 ] } },
{ "type": "Feature", "properties": { "Name": "Praça Colégio", "Ruas": "Rua Itaguaté / Rua Imbuí" }, "geometry": { "type": "Point", "coordinates": [ -43.3633224, -22.7686927, 0.0 ] } },
{ "type": "Feature", "properties": { "Name": "Praça Madalena", "Ruas": "Av. Automóvel Club / Rua Euclides da Cunha" }, "geometry": { "type": "Point", "coordinates": [ -43.361318, -22.7685101, 0.0 ] } },
{ "type": "Feature", "properties": { "Name": "Praça Euclides da Cunha", "Ruas": "Rua Euclides da Cunha / Rua Cambuci" }, "geometry": { "type": "Point", "coordinates": [ -43.3598622, -22.7682218, 0.0 ] } },
{ "type": "Feature", "properties": { "Name": "Praça do Trevo", "Ruas": "Av. do Canal / Rua Imbuí" }, "geometry": { "type": "Point", "coordinates": [ -43.3619355, -22.7698514, 0.0 ] } },
{ "type": "Feature", "properties": { "Name": "Praça Dom Pedro II", "Ruas": "Rua Barão do Flamengo / Rua São Fidelis" }, "geometry": { "type": "Point", "coordinates": [ -43.3670331, -22.7752039, 0.0 ] } },
{ "type": "Feature", "properties": { "Name": "Praça Asilo dos Velhinhos", "Ruas": "Rua Capivari / Rua São Gonçalo" }, "geometry": { "type": "Point", "coordinates": [ -43.3577792, -22.7722147, 0.0 ] } },
{ "type": "Feature", "properties": { "Name": "Praça Milton Rodrigues Pereira", "Ruas": "Av. Fagundes Varela / Rua Niterói" }, "geometry": { "type": "Point", "coordinates": [ -43.352267, -22.7693838, 0.0 ] } },
{ "type": "Feature", "properties": { "Name": "Praça do Coquito", "Ruas": "Rua Mangaratiba / Rua Glória" }, "geometry": { "type": "Point", "coordinates": [ -43.3531521, -22.7718326, 0.0 ] } },
{ "type": "Feature", "properties": { "Name": "Praça Humaitá", "Ruas": "Rua Glória / Rua Humaitá" }, "geometry": { "type": "Point", "coordinates": [ -43.3530034, -22.7737546, 0.0 ] } },
{ "type": "Feature", "properties": { "Name": "Praça Vila Ruth (Quadra)", "Ruas": "Rua Laborne do vale / Rua Alice" }, "geometry": { "type": "Point", "coordinates": [ -43.3489204, -22.7735991, 0.0 ] } },
{ "type": "Feature", "properties": { "Name": "Praça Carlos Gomes", "Ruas": "Rua Biafra" }, "geometry": { "type": "Point", "coordinates": [ -43.3498939, -22.7756449, 0.0 ] } },
{ "type": "Feature", "properties": { "Name": "Praça Bonsucesso (Quadra do Vila)", "Ruas": "Rua Glória / Rua Cosme Velho" }, "geometry": { "type": "Point", "coordinates": [ -43.3526478, -22.7754644, 0.0 ] } },
{ "type": "Feature", "properties": { "Name": "Praça Jardim Botânico", "Ruas": "Rua Jardim Botânico / Av. Comendador Teles" }, "geometry": { "type": "Point", "coordinates": [ -43.3552203, -22.775482, 0.0 ] } },
{ "type": "Feature", "properties": { "Name": "Praça Compaixão", "Ruas": "Rua Vereador Ivan Lopes / Av. Presidente Lincoln" }, "geometry": { "type": "Point", "coordinates": [ -43.3643608, -22.7770195, 0.0 ] } },
{ "type": "Feature", "properties": { "Name": "Praça da UPA", "Ruas": "Av. Comendador Teles / Rua Copacabana" }, "geometry": { "type": "Point", "coordinates": [ -43.351782, -22.7782523, 0.0 ] } },
{ "type": "Feature", "properties": { "Name": "Praça do Canal", "Ruas": "Av. Automóvel Club / Av. do Canal" }, "geometry": { "type": "Point", "coordinates": [ -43.3615068, -22.7688174, 0.0 ] } },
{ "type": "Feature", "properties": { "Name": "Praça Luis Alves Cavalcante", "Ruas": "Rua Luis Alves Cavalcante / Rua Dr. Celso José de Carvalho" }, "geometry": { "type": "Point", "coordinates": [ -43.3682931, -22.7776936, 0.0 ] } },
{ "type": "Feature", "properties": { "Name": "Praça Nações Unidas", "Ruas": "Av. Presidente Lincoln / Rua Pastor Joaquim Rosa" }, "geometry": { "type": "Point", "coordinates": [ -43.3685841, -22.7791012, 0.0 ] } },
{ "type": "Feature", "properties": { "Name": "Praça Luiza Mahin", "Ruas": "Rua Doutor Benedicto Ultra / Rua Antônio Garcia" }, "geometry": { "type": "Point", "coordinates": [ -43.364198, -22.7811974, 0.0 ] } },
{ "type": "Feature", "properties": { "Name": "Praça Veneza", "Ruas": "Rua Coreana / Rua Separação" }, "geometry": { "type": "Point", "coordinates": [ -43.3668784, -22.7827358, 0.0 ] } },
{ "type": "Feature", "properties": { "Name": "Praça Campo do Cruzeiro", "Ruas": "Rua Joaquim Nabuco / Av. Minas Gerais" }, "geometry": { "type": "Point", "coordinates": [ -43.3746135, -22.7701033, 0.0 ] } },
{ "type": "Feature", "properties": { "Name": "Campo do Noia", "Ruas": "Rua Campos / Rua Carlos Augusto" }, "geometry": { "type": "Point", "coordinates": [ -43.356454, -22.7626139, 0.0 ] } },
{ "type": "Feature", "properties": { "Name": "Praça Santos Dumont (Quadra)", "Ruas": "Rua Visconde de Barbacena / Rua Progresso" }, "geometry": { "type": "Point", "coordinates": [ -43.3629941, -22.7884392, 0.0 ] } },
{ "type": "Feature", "properties": { "Name": "Praça Arlindo Alves de Ferreira", "Ruas": "Rua Arlindo Alves de Ferreira / Rua Capri" }, "geometry": { "type": "Point", "coordinates": [ -43.3679049, -22.7855203, 0.0 ] } },
{ "type": "Feature", "properties": { "Name": "Praça Alfredo Fernandes Lima", "Ruas": "Rua Antero Pinto Pereira / Av. Presidente Lincoln" }, "geometry": { "type": "Point", "coordinates": [ -43.3723719, -22.7806183, 0.0 ] } },
{ "type": "Feature", "properties": { "Name": "Praça da Paz", "Ruas": "Rua Joana Kalil / Rua Vânio de Santana Moreira" }, "geometry": { "type": "Point", "coordinates": [ -43.3687583, -22.7886985, 0.0 ] } },
{ "type": "Feature", "properties": { "Name": "Praça José Alves Lavoura (Jal)", "Ruas": "Rua Joana Kalil / Av. Automóvel Club" }, "geometry": { "type": "Point", "coordinates": [ -43.3648604, -22.7905677, 0.0 ] } },
{ "type": "Feature", "properties": { "Name": "Praça Bela Vista", "Ruas": "Av. Bela Vista / Rua dos Andradas" }, "geometry": { "type": "Point", "coordinates": [ -43.3630623, -22.7933641, 0.0 ] } },
{ "type": "Feature", "properties": { "Name": "Praça Cipó", "Ruas": "Rua Hertz / Rua Bento Lisboa" }, "geometry": { "type": "Point", "coordinates": [ -43.3693593, -22.7924607, 0.0 ] } },
{ "type": "Feature", "properties": { "Name": "Praça Campo do Martins", "Ruas": "Rua Maestro Benedito de Moura / Rua Usina" }, "geometry": { "type": "Point", "coordinates": [ -43.3677355, -22.7950038, 0.0 ] } },
{ "type": "Feature", "properties": { "Name": "Campo de Futebol Jardim Meriti", "Ruas": "Rua Salgado Filho / Rua Dinorá Silva" }, "geometry": { "type": "Point", "coordinates": [ -43.3717713, -22.7814734, 0.0 ] } },
{ "type": "Feature", "properties": { "Name": "Praça da Quadra da Rua Congo", "Ruas": "Rua Congo (Atrás do CIEP 135)" }, "geometry": { "type": "Point", "coordinates": [ -43.3658035, -22.7876017, 0.0 ] } },
{ "type": "Feature", "properties": { "Name": "Praça Vale da Simpatia (Quadra)", "Ruas": "Rua Dr. Cesar do Nascimento Monteiro / Rua Encantado" }, "geometry": { "type": "Point", "coordinates": [ -43.3614809, -22.7831891, 0.0 ] } },
{ "type": "Feature", "properties": { "Name": "Praça Alvina Rosa Silva", "Ruas": "Rua Pio X / Rua José Souza Sampaio" }, "geometry": { "type": "Point", "coordinates": [ -43.3590248, -22.7879395, 0.0 ] } },
{ "type": "Feature", "properties": { "Name": "Praça 23 de Agosto (Quadra)", "Ruas": "Rua Vinte e Três de Agosto / Rua Nádia Maria de Menezes" }, "geometry": { "type": "Point", "coordinates": [ -43.3481716, -22.7851229, 0.0 ] } },
{ "type": "Feature", "properties": { "Name": "Quadra Parque Barreto", "Ruas": "Rua Maria Alice / Rua Piracicaba" }, "geometry": { "type": "Point", "coordinates": [ -43.3475732, -22.7885446, 0.0 ] } },
{ "type": "Feature", "properties": { "Name": "Praça Dr. Francisco Teles", "Ruas": "Rua Dr. Francisco Teles" }, "geometry": { "type": "Point", "coordinates": [ -43.3533333, -22.7931528, 0.0 ] } },
{ "type": "Feature", "properties": { "Name": "Praça São Lázaro", "Ruas": "Rua João de Deus Menezes (em frente ao cemitério)" }, "geometry": { "type": "Point", "coordinates": [ -43.3522772, -22.7881417, 0.0 ] } },
{ "type": "Feature", "properties": { "Name": "Horto Municipal", "Ruas": "Rua Clélia de Menezes" }, "geometry": { "type": "Point", "coordinates": [ -43.3520226, -22.7873404, 0.0 ] } },
{ "type": "Feature", "properties": { "Name": "Parque Jurema", "Ruas": "Rua Ana Menezes Santos / Rua Guilhermina Menezes" }, "geometry": { "type": "Point", "coordinates": [ -43.3413403, -22.7854835, 0.0 ] } },
{ "type": "Feature", "properties": { "Name": "Praça do Tozzi", "Ruas": "Rua Maria Rasuk Vilela / Rua Salomão Ferreira do Nascimento" }, "geometry": { "type": "Point", "coordinates": [ -43.3774179, -22.7833666, 0.0 ] } },
{ "type": "Feature", "properties": { "Name": "Praça Vila Farrula", "Ruas": "Rua José dos Reis / Tv. Rubens Farrula" }, "geometry": { "type": "Point", "coordinates": [ -43.3801735, -22.7828629, 0.0 ] } },
{ "type": "Feature", "properties": { "Name": "Praça Coelho da Rocha (Quadra)", "Ruas": "Rua Ex-Combatente / Rua Domingos Lemos" }, "geometry": { "type": "Point", "coordinates": [ -43.3818106, -22.7824734, 0.0 ] } },
{ "type": "Feature", "properties": { "Name": "Praça do Garrafão", "Ruas": "Rua Ex-Combatente / Rua Vicentina" }, "geometry": { "type": "Point", "coordinates": [ -43.3819791, -22.7806334, 0.0 ] } },
{ "type": "Feature", "properties": { "Name": "Praça Parque Alian", "Ruas": "Rua Jaspe / Av. Pasteur" }, "geometry": { "type": "Point", "coordinates": [ -43.3836388, -22.7674218, 0.0 ] } },
{ "type": "Feature", "properties": { "Name": "Quadra Parque Alian", "Ruas": "Rua Cristal / Rua Ferro" }, "geometry": { "type": "Point", "coordinates": [ -43.3869004, -22.7735979, 0.0 ] } },
{ "type": "Feature", "properties": { "Name": "Quadra Humberto Tozzi", "Ruas": "Rua Plácido Figueiredo Junior / Rua Geni Ferreira de Matos" }, "geometry": { "type": "Point", "coordinates": [ -43.3777461, -22.7832557, 0.0 ] } },
{ "type": "Feature", "properties": { "Name": "Praça Coelhinho", "Ruas": "Rua Arminda (ao lado da UFS Valério Vilas Boas Filho)" }, "geometry": { "type": "Point", "coordinates": [ -43.3920173, -22.7783512, 0.0 ] } },
{ "type": "Feature", "properties": { "Name": "Praça Agostinho Porto", "Ruas": "Rua Monsenhor Gioseppe Boggiani / Rua Coelho da Rocha" }, "geometry": { "type": "Point", "coordinates": [ -43.3809267, -22.7860574, 0.0 ] } },
{ "type": "Feature", "properties": { "Name": "Praça Vereador Almir Falcão Paim", "Ruas": "Rua Cacilda / Rua Carlos Sodré" }, "geometry": { "type": "Point", "coordinates": [ -43.3818086, -22.7912, 0.0 ] } },
{ "type": "Feature", "properties": { "Name": "Praça José de Carvalho", "Ruas": "Rua Cândida Pires / Mirza Abraham" }, "geometry": { "type": "Point", "coordinates": [ -43.3767904, -22.7994062, 0.0 ] } },
{ "type": "Feature", "properties": { "Name": "Praça Osvaldo de Medeiros Filho", "Ruas": "Av. Carioca / Rua Dr. Agostinho Porto" }, "geometry": { "type": "Point", "coordinates": [ -43.3770665, -22.7855169, 0.0 ] } },
{ "type": "Feature", "properties": { "Name": "Praça Rosali", "Ruas": "Rua Guimarães / Tv. Alice Farias" }, "geometry": { "type": "Point", "coordinates": [ -43.3783625, -22.7921047, 0.0 ] } },
{ "type": "Feature", "properties": { "Name": "Praça Independência", "Ruas": "Av. Nossa Senhora das Graças (Rodoviária do Centro)" }, "geometry": { "type": "Point", "coordinates": [ -43.3726304, -22.7989677, 0.0 ] } },
{ "type": "Feature", "properties": { "Name": "Praça da Matriz", "Ruas": "Rua da Matriz / Rua Expedicionário" }, "geometry": { "type": "Point", "coordinates": [ -43.370735, -22.8024368, 0.0 ] } },
{ "type": "Feature", "properties": { "Name": "Praça da Ciclovia", "Ruas": "Rua da Matriz / Av. Getúlio de Moura" }, "geometry": { "type": "Point", "coordinates": [ -43.3718306, -22.8038413, 0.0 ] } },
{ "type": "Feature", "properties": { "Name": "Praça São João Batista (Skate)", "Ruas": "Rua São João Batista / Rua Antônio José de Morais" }, "geometry": { "type": "Point", "coordinates": [ -43.365495, -22.8031039, 0.0 ] } },
{ "type": "Feature", "properties": { "Name": "Praça Parimã", "Ruas": "Av. Itapuã / Av. Amaralina" }, "geometry": { "type": "Point", "coordinates": [ -43.3949806, -22.7823447, 0.0 ] } },
{ "type": "Feature", "properties": { "Name": "Praça Tocantins", "Ruas": "Av. Arizona / Av. Ipameri" }, "geometry": { "type": "Point", "coordinates": [ -43.3918389, -22.7847173, 0.0 ] } },
{ "type": "Feature", "properties": { "Name": "Praça Hermógenes Brum", "Ruas": "Av. Goiânia / Rua Cristalina" }, "geometry": { "type": "Point", "coordinates": [ -43.3953413, -22.7883183, 0.0 ] } },
{ "type": "Feature", "properties": { "Name": "Praça Francisca Guimarães Neves", "Ruas": "Av. Dr. Délio Guaraná / Av. Domingos Alves de Oliveira" }, "geometry": { "type": "Point", "coordinates": [ -43.3969639, -22.7929581, 0.0 ] } },
{ "type": "Feature", "properties": { "Name": "Praça Alda de Albuquerque", "Ruas": "Av. Torres Homem / Rua Grinaldina Moreira" }, "geometry": { "type": "Point", "coordinates": [ -43.3977573, -22.7936615, 0.0 ] } },
{ "type": "Feature", "properties": { "Name": "Praça Vila Norma", "Ruas": "Av. Elizário de Souza / Rua Noeli Santiago" }, "geometry": { "type": "Point", "coordinates": [ -43.4054625, -22.7895654, 0.0 ] } },
{ "type": "Feature", "properties": { "Name": "Praça Castelinho", "Ruas": "Rua Letícia / Rua Maria das Dores Andrade Silva" }, "geometry": { "type": "Point", "coordinates": [ -43.3978778, -22.7969606, 0.0 ] } },
{ "type": "Feature", "properties": { "Name": "Praça Campo do Luizinho", "Ruas": "Rua Peri / Rua Aparecida" }, "geometry": { "type": "Point", "coordinates": [ -43.4016813, -22.7940629, 0.0 ] } },
{ "type": "Feature", "properties": { "Name": "Praça Parque Éden", "Ruas": "Rua Nilópolis" }, "geometry": { "type": "Point", "coordinates": [ -43.4041116, -22.7975131, 0.0 ] } },
{ "type": "Feature", "properties": { "Name": "Praça Aida Teixeira de Moraes", "Ruas": "Rua Dona Jove / Av. Presidente Tancredo Neves" }, "geometry": { "type": "Point", "coordinates": [ -43.3937873, -22.8039925, 0.0 ] } },
{ "type": "Feature", "properties": { "Name": "Praça Martinha Neves da Rocha", "Ruas": "Rua Jorge Alves Souza Filho / Av. Presidente Tancredo Neves" }, "geometry": { "type": "Point", "coordinates": [ -43.3912819, -22.8056238, 0.0 ] } },
{ "type": "Feature", "properties": { "Name": "Praça Manoel Silveira Milo", "Ruas": "Rua Ana Lima / Av. Presidente Tancredo Neves" }, "geometry": { "type": "Point", "coordinates": [ -43.3897528, -22.8058741, 0.0 ] } },
{ "type": "Feature", "properties": { "Name": "Praça Ciclovia Tomazinho", "Ruas": "Av. Presidente Tancredo Neves / Rua Dr. Luis Sobral" }, "geometry": { "type": "Point", "coordinates": [ -43.3929876, -22.8047245, 0.0 ] } },
{ "type": "Feature", "properties": { "Name": "Praça Alzira Serra", "Ruas": "Rua Alzira Serra / Rua Joana Leopoldina" }, "geometry": { "type": "Point", "coordinates": [ -43.3912528, -22.8037364, 0.0 ] } },
{ "type": "Feature", "properties": { "Name": "Praça Chiquinha Gonzaga", "Ruas": "Rua Antônio Alves da Costa / Rua Carlos Gentil Homem" }, "geometry": { "type": "Point", "coordinates": [ -43.3889073, -22.8055105, 0.0 ] } },
{ "type": "Feature", "properties": { "Name": "Praça Sargento Monsores", "Ruas": "Rua Antônio Hermont / Av. Presidente Tancredo Neves" }, "geometry": { "type": "Point", "coordinates": [ -43.3867781, -22.8063523, 0.0 ] } },
{ "type": "Feature", "properties": { "Name": "Praça Paróquia de São Mateus", "Ruas": "Av. Ana Brito da Silva / Rua Antônio Hermont" }, "geometry": { "type": "Point", "coordinates": [ -43.3859003, -22.8059837, 0.0 ] } },
{ "type": "Feature", "properties": { "Name": "Praça Roberto Silveira", "Ruas": "Av. Ana Brito da Silva / Rua Dep. Rubens Paiva" }, "geometry": { "type": "Point", "coordinates": [ -43.3826716, -22.8064247, 0.0 ] } },
{ "type": "Feature", "properties": { "Name": "Quadra Terceira", "Ruas": "Rua Antônio Hermont / Rua Augusto Balcemão" }, "geometry": { "type": "Point", "coordinates": [ -43.3921559, -22.8096572, 0.0 ] } },
{ "type": "Feature", "properties": { "Name": "Praça Dorindo Gomes", "Ruas": "Rua Marieta / Rua Ana Lima" }, "geometry": { "type": "Point", "coordinates": [ -43.3853714, -22.8122629, 0.0 ] } },
{ "type": "Feature", "properties": { "Name": "Praça da Vila Tiradentes", "Ruas": "Av. Getúlio de Moura / Rua Madalena" }, "geometry": { "type": "Point", "coordinates": [ -43.383061, -22.7934744, 0.0 ] } }
]
}
