{
"type": "FeatureCollection",
"name": "NovasInstituicoes",
"crs": { "type": "name", "properties": { "name": "urn:ogc:def:crs:OGC:1.3:CRS84" } },
"features": [
{ "type": "Feature", "properties": { "Index": 0, "Escola": "CM Rua Março Antônio", "Turma": "SEM INFORMAÇÃO", "Serie": "SEM INFORMAÇÃO", "Turno": "SEM INFORMAÇÃO", "Quantidade de Vagas": 0, "Alunos na turma": 0, "Vagas Disponiveis": 0, "endereco": "Rua Março Antônio", "bairro": "Vila São João", "gps": "-22.76313, -43.35583", "lat": -22.76313, "lon": -43.35583 }, "geometry": { "type": "Point", "coordinates": [ -43.35583, -22.76313, 0.0 ] } },
{ "type": "Feature", "properties": { "Index": 1, "Escola": "Espaço Anexo na CM Vila São João", "Turma": "SEM INFORMAÇÃO", "Serie": "SEM INFORMAÇÃO", "Turno": "SEM INFORMAÇÃO", "Quantidade de Vagas": 0, "Alunos na turma": 0, "Vagas Disponiveis": 0, "endereco": "Av. Alberto de Oliveira", "bairro": "Vila São João", "gps": "-22.76766, -43.35363", "lat": -22.76766, "lon": -43.35363 }, "geometry": { "type": "Point", "coordinates": [ -43.35363, -22.76766, 0.0 ] } },
{ "type": "Feature", "properties": { "Index": 2, "Escola": "CM Rua Bernardino", "Turma": "SEM INFORMAÇÃO", "Serie": "SEM INFORMAÇÃO", "Turno": "SEM INFORMAÇÃO", "Quantidade de Vagas": 0, "Alunos na turma": 0, "Vagas Disponiveis": 0, "endereco": "Rua Bernardino c/ Rua cacilda", "bairro": "Agostinho Porto", "gps": "-22.79051, -43.38230", "lat": -22.79051, "lon": -43.38230 }, "geometry": { "type": "Point", "coordinates": [ -43.38230, -22.79051, 0.0 ] } },
{ "type": "Feature", "properties": { "Index": 3, "Escola": "CM Rua Manoel Cunha", "Turma": "SEM INFORMAÇÃO", "Serie": "SEM INFORMAÇÃO", "Turno": "SEM INFORMAÇÃO", "Quantidade de Vagas": 0, "Alunos na turma": 0, "Vagas Disponiveis": 0, "endereco": "Rua Manoel Cunha c/ Rua cacilda", "bairro": "Coelho da Rocha", "gps": "-22.77703, -43.39053", "lat": -22.77703, "lon": -43.39053 }, "geometry": { "type": "Point", "coordinates": [ -43.39053, -22.77703, 0.0 ] } },
{ "type": "Feature", "properties": { "Index": 4, "Escola": "CM Rua Domingos Lemis", "Turma": "SEM INFORMAÇÃO", "Serie": "SEM INFORMAÇÃO", "Turno": "SEM INFORMAÇÃO", "Quantidade de Vagas": 0, "Alunos na turma": 0, "Vagas Disponiveis": 0, "endereco": "Rua Ex-Combatente c/ Rua Domingos Lemos", "bairro": "Coelho da Rocha", "gps": "-22.78210, -43.38169", "lat": -22.78210, "lon": -43.38169 }, "geometry": { "type": "Point", "coordinates": [ -43.38401, -22.78949, 0.0 ] } },
{ "type": "Feature", "properties": { "Index": 5, "Escola": "CM Av. Pasteur", "Turma": "SEM INFORMAÇÃO", "Serie": "SEM INFORMAÇÃO", "Turno": "SEM INFORMAÇÃO", "Quantidade de Vagas": 0, "Alunos na turma": 0, "Vagas Disponiveis": 0, "endereco": "Av Pasteur c/ Rua Dolomita", "bairro": "Coelho da Rocha", "gps": "-22.76965, -43.38694", "lat": -22.76965, "lon": -43.38694 }, "geometry": { "type": "Point", "coordinates": [ -43.38694, -22.76965, 0.0 ] } },
{ "type": "Feature", "properties": { "Index": 6, "Escola": "CM Rua A. José de Moraes", "Turma": "SEM INFORMAÇÃO", "Serie": "SEM INFORMAÇÃO", "Turno": "SEM INFORMAÇÃO", "Quantidade de Vagas": 0, "Alunos na turma": 0, "Vagas Disponiveis": 0, "endereco": "Rua Antônio José de Moraes N 320", "bairro": "Centro", "gps": "-22.80107, -43.36574", "lat": -22.80107, "lon": -43.36574 }, "geometry": { "type": "Point", "coordinates": [ -43.36574, -22.80107, 0.0 ] } },
{ "type": "Feature", "properties": { "Index": 7, "Escola": "CM Rua da Matriz", "Turma": "SEM INFORMAÇÃO", "Serie": "SEM INFORMAÇÃO", "Turno": "SEM INFORMAÇÃO", "Quantidade de Vagas": 0, "Alunos na turma": 0, "Vagas Disponiveis": 0, "endereco": "R. da Matriz, 2240", "bairro": "Agostinho Porto", "gps": "-22.78707, -43.38299", "lat": -22.78707, "lon": -43.38299 }, "geometry": { "type": "Point", "coordinates": [ -43.38299, -22.78707, 0.0 ] } },
{ "type": "Feature", "properties": { "Index": 8, "Escola": "CM Av. Dr. Arruda Negreiros", "Turma": "SEM INFORMAÇÃO", "Serie": "SEM INFORMAÇÃO", "Turno": "SEM INFORMAÇÃO", "Quantidade de Vagas": 0, "Alunos na turma": 0, "Vagas Disponiveis": 0, "endereco": "Av. Dr. Arruda Negreiros - 1463", "bairro": "São Mateus", "gps": "-22.80632, -43.38229", "lat": -22.80632, "lon": -43.38229 }, "geometry": { "type": "Point", "coordinates": [ -43.38229, -22.80632, 0.0 ] } }
]
}
