{
"type": "FeatureCollection",
"name": "Aparelhos",
"crs": { "type": "name", "properties": { "name": "urn:ogc:def:crs:OGC:1.3:CRS84" } },
"features": [
{ "type": "Feature", "properties": { "Tipo": "Emergência 24h ", "UnidadeSaude": "Upa Infantil De Éden", "Endereco": "Avenida Dr. Roberto Da Silveira, S/N – Éden – Cep: 25545-120", "Coordenadas": "-22.785211947805422, -43.38505198465738", "latitude": -22.785211947805422, "longitude": -43.38505198465738 }, "geometry": { "type": "Point", "coordinates": [ -43.38505198465738, -22.785211947805422 ] } },
{ "type": "Feature", "properties": { "Tipo": "Emergência 24h ", "UnidadeSaude": "Hospital Municipal De São João De Meriti Abdon Gonçalves", "Endereco": "Avenida Presidente Lincoln, S/N – Jardim Meriti – Cep: 25555-200", "Coordenadas": "-22.780549215600452, -43.373155999999994", "latitude": -22.780549215600452, "longitude": -43.373156 }, "geometry": { "type": "Point", "coordinates": [ -43.373156, -22.780549215600452 ] } },
{ "type": "Feature", "properties": { "Tipo": "Hospital ", "UnidadeSaude": "Hospital Maternidade Municipal De São João De Meriti Jurema Da Silva Peixoto ", "Endereco": "Rua Virgílio De Azembuja Monteiro, 13 – Centro – Cep: 25520-410", "Coordenadas": "-22.80185807618366, -43.375708244178284", "latitude": -22.80185807618366, "longitude": -43.375708244178284 }, "geometry": { "type": "Point", "coordinates": [ -43.375708244178284, -22.80185807618366 ] } },
{ "type": "Feature", "properties": { "Tipo": "Emergência 24h ", "UnidadeSaude": "Samu – Serviço De Atendimento Móvel De Urgência – Ligue 192", "Endereco": "Avenida Presidente Lincoln, 1050 – Vilar Dos Teles – Cep 25570-250 – Vilar Dos Teles", "Coordenadas": "-22.777921103799827, -43.366987271164334", "latitude": -22.777921103799827, "longitude": -43.366987271164334 }, "geometry": { "type": "Point", "coordinates": [ -43.366987271164334, -22.777921103799827 ] } },
{ "type": "Feature", "properties": { "Tipo": "UPA", "UnidadeSaude": "Upa Infantil De Éden", "Endereco": "Avenida Dr. Roberto Da Silveira, S/N – Éden – Cep: 25545-120", "Coordenadas": "-22.785211947805422, -43.38505198465738", "latitude": -22.785211947805422, "longitude": -43.38505198465738 }, "geometry": { "type": "Point", "coordinates": [ -43.38505198465738, -22.785211947805422 ] } },
{ "type": "Feature", "properties": { "Tipo": "Posto de Sáude ", "UnidadeSaude": "Posto De Saúde Vila União", "Endereco": "Rua Alvaro Proença, S/N – Vila União – Cep 25530-100 – Vila União", "Coordenadas": "-22.810263159793298, -43.38548744232868", "latitude": -22.810263159793298, "longitude": -43.385487442328682 }, "geometry": { "type": "Point", "coordinates": [ -43.385487442328682, -22.810263159793298 ] } },
{ "type": "Feature", "properties": { "Tipo": "Posto de Sáude ", "UnidadeSaude": "Posto De Saúde Vila São João", "Endereco": "Rua Euclides Da Cunha, S/N – Vila São João – Cep 25570-000 – Vila São João", "Coordenadas": "-22.766067515192358, -43.351016", "latitude": -22.766067515192358, "longitude": -43.351016 }, "geometry": { "type": "Point", "coordinates": [ -43.351016, -22.766067515192358 ] } },
{ "type": "Feature", "properties": { "Tipo": "Posto de Sáude ", "UnidadeSaude": "Posto De Saúde Jardim Sumaré", "Endereco": "Estrada Das Pedrinhas, S/N – Jardim Sumaré – Cep 25580-000 – Jardim Sumaré", "Coordenadas": "-22.78139421685645, -43.33433991534261", "latitude": -22.781394216856452, "longitude": -43.334339915342611 }, "geometry": { "type": "Point", "coordinates": [ -43.334339915342611, -22.781394216856452 ] } },
{ "type": "Feature", "properties": { "Tipo": "Unidade de Saúde da Familia ", "UnidadeSaude": "Coordenação Da Estrategia De Saúde Da Familia ", "Endereco": "Avenida Presidente Lincoln, 26 (3º Andar) – Jardim Meriti – Cep: 25555-200", "Coordenadas": "-22.78056899945757, -43.373155999999994", "latitude": -22.780568999457572, "longitude": -43.373156 }, "geometry": { "type": "Point", "coordinates": [ -43.373156, -22.780568999457572 ] } },
{ "type": "Feature", "properties": { "Tipo": "Unidade de Saúde da Familia ", "UnidadeSaude": "Clínica Da Família Vila São João", "Endereco": "Rua Euclides Da Cunha, S/N – Vila São João – Cep: 26135-020", "Coordenadas": "-22.766067515192358, -43.35097308465738", "latitude": -22.766067515192358, "longitude": -43.350973084657383 }, "geometry": { "type": "Point", "coordinates": [ -43.350973084657383, -22.766067515192358 ] } },
{ "type": "Feature", "properties": { "Tipo": "Unidade de Saúde da Familia ", "UnidadeSaude": "Usf Almir Gonçalves Silva (José Bonifácio)", "Endereco": "Avenida Bela Vista, S/N – Parque José Bonifácio (Próximo Ao Ciep 175) –Cep: 25560-580", "Coordenadas": "-22.793211343429967, -43.36168635582171", "latitude": -22.793211343429967, "longitude": -43.36168635582171 }, "geometry": { "type": "Point", "coordinates": [ -43.36168635582171, -22.793211343429967 ] } },
{ "type": "Feature", "properties": { "Tipo": "Unidade de Saúde da Familia ", "UnidadeSaude": "Usf Carmem Bandeira De Mello (Tibagi)", "Endereco": "Rua Tibagi,100/101- Jardim Metrópole – Cep: 25571-201", "Coordenadas": "-22.760822928925947, -43.33554446696973", "latitude": -22.760822928925947, "longitude": -43.335544466969729 }, "geometry": { "type": "Point", "coordinates": [ -43.335544466969729, -22.760822928925947 ] } },
{ "type": "Feature", "properties": { "Tipo": "Unidade de Saúde da Familia ", "UnidadeSaude": "Usf Dr. Jorge Tannus Rejane (Porto Alegre)", "Endereco": "Rua Fernandes De Queiróz, S/N – Jardim Metrópole – Cep: 25571-210", "Coordenadas": "-22.762691989069964, -43.34125993747701", "latitude": -22.762691989069964, "longitude": -43.341259937477012 }, "geometry": { "type": "Point", "coordinates": [ -43.341259937477012, -22.762691989069964 ] } },
{ "type": "Feature", "properties": { "Tipo": "Unidade de Saúde da Familia ", "UnidadeSaude": "Usf Everaldo De Almeida Freire (Coelhão)", "Endereco": "Rua Ex-Combatente, S/N – Coelho Da Rocha – Cep: 25550-000", "Coordenadas": "-22.78023443126187, -43.3825166356413", "latitude": -22.780234431261871, "longitude": -43.382516635641302 }, "geometry": { "type": "Point", "coordinates": [ -43.382516635641302, -22.780234431261871 ] } },
{ "type": "Feature", "properties": { "Tipo": "Unidade de Saúde da Familia ", "UnidadeSaude": "Usf Jackson Martins (Sarapuí)", "Endereco": "Av Sarapuí, S/N – Praça Da Bandeira – Cep: 25560-300", "Coordenadas": "-22.766161087179327, -43.37740036445303", "latitude": -22.766161087179327, "longitude": -43.377400364453031 }, "geometry": { "type": "Point", "coordinates": [ -43.377400364453031, -22.766161087179327 ] } },
{ "type": "Feature", "properties": { "Tipo": "Unidade de Saúde da Familia ", "UnidadeSaude": "Usf Jacy Alves Dos Santos Jr. (Vila São José)", "Endereco": "Avenida Comendador Teles, 9, Vila São José – Cep: 25561-161", "Coordenadas": "-22.77751326007357, -43.34306601228153", "latitude": -22.777513260073569, "longitude": -43.343066012281533 }, "geometry": { "type": "Point", "coordinates": [ -43.343066012281533, -22.777513260073569 ] } },
{ "type": "Feature", "properties": { "Tipo": "Unidade de Saúde da Familia ", "UnidadeSaude": "Usf Maria Da Glória Costa (Guarani)", "Endereco": "Rua João Venâncio Da Rosa, S/N, Jardim Metrópole – Cep: 25575-241", "Coordenadas": "-22.771629935405468, -43.33451929169682", "latitude": -22.771629935405468, "longitude": -43.334519291696822 }, "geometry": { "type": "Point", "coordinates": [ -43.334519291696822, -22.771629935405468 ] } },
{ "type": "Feature", "properties": { "Tipo": "Unidade de Saúde da Familia ", "UnidadeSaude": "Usf Morro Das Pedras", "Endereco": "Rua Morro Das Pedras, S/N – Vilar Dos Teles – Cep: 22580-000", "Coordenadas": "-22.76985355585871, -43.37015872883566", "latitude": -22.76985355585871, "longitude": -43.370158728835662 }, "geometry": { "type": "Point", "coordinates": [ -43.370158728835662, -22.76985355585871 ] } },
{ "type": "Feature", "properties": { "Tipo": "Unidade de Saúde da Familia ", "UnidadeSaude": "Usf Parque Alian", "Endereco": "Rua Jaspen, S/N – Parque Alian – Cep: 25555-000", "Coordenadas": "-22.768833412664566, -43.382522084657374", "latitude": -22.768833412664566, "longitude": -43.382522084657374 }, "geometry": { "type": "Point", "coordinates": [ -43.382522084657374, -22.768833412664566 ] } },
{ "type": "Feature", "properties": { "Tipo": "Unidade de Saúde da Familia ", "UnidadeSaude": "Usf Parque Araruama", "Endereco": "Rua Dionísio Rocha, S/N – Parque Araruama – Cep: 25585-000", "Coordenadas": "-22.793509907796906, -43.336663084657374", "latitude": -22.793509907796906, "longitude": -43.336663084657374 }, "geometry": { "type": "Point", "coordinates": [ -43.336663084657374, -22.793509907796906 ] } },
{ "type": "Feature", "properties": { "Tipo": "Unidade de Saúde da Familia ", "UnidadeSaude": "Usf Salvador José De Lima (Gato Preto)", "Endereco": "Rua Ceci, S/N – Éden – Cep: 25555-670", "Coordenadas": "-22.79813413238696, -43.40094337301394", "latitude": -22.798134132386959, "longitude": -43.400943373013938 }, "geometry": { "type": "Point", "coordinates": [ -43.400943373013938, -22.798134132386959 ] } },
{ "type": "Feature", "properties": { "Tipo": "Unidade de Saúde da Familia ", "UnidadeSaude": "Usf Tucão", "Endereco": "Avenida Automóvel Clube, S/N, Esquina Com A Rua Orlando Caldellas Santos - Vilar Dos Teles - Cep 25561-170", "Coordenadas": "-22.76494565765222, -43.362376186506964", "latitude": -22.76494565765222, "longitude": -43.362376186506964 }, "geometry": { "type": "Point", "coordinates": [ -43.362376186506964, -22.76494565765222 ] } },
{ "type": "Feature", "properties": { "Tipo": "Unidade de Saúde da Familia ", "UnidadeSaude": "Usf Valério Vilas Boas Filho (Coelhinho)", "Endereco": "Rua Manoel Cunha, S/N – Coelho Da Rocha – Cep: 25545-000", "Coordenadas": "-22.777838858918532, -43.39236837301394", "latitude": -22.777838858918532, "longitude": -43.392368373013937 }, "geometry": { "type": "Point", "coordinates": [ -43.392368373013937, -22.777838858918532 ] } },
{ "type": "Feature", "properties": { "Tipo": "Unidade de Saúde da Familia ", "UnidadeSaude": "Usf Venda Velha (Novo Rio)", "Endereco": "Avenida Estácio De Sá, S/N, Lote 35, Quadra 31 – Venda Velha – Cep:25585-000", "Coordenadas": "-22.79409584239828, -43.34237089169596", "latitude": -22.794095842398281, "longitude": -43.342370891695957 }, "geometry": { "type": "Point", "coordinates": [ -43.342370891695957, -22.794095842398281 ] } },
{ "type": "Feature", "properties": { "Tipo": "Unidade de Saúde da Familia ", "UnidadeSaude": "Usf Vila Jurandir", "Endereco": "Rua Joaquim Couto, S/N – Vila Jurandir – Cep 2554-370", "Coordenadas": "-22.786277658124988, -43.39937162698607", "latitude": -22.786277658124988, "longitude": -43.399371626986067 }, "geometry": { "type": "Point", "coordinates": [ -43.399371626986067, -22.786277658124988 ] } },
{ "type": "Feature", "properties": { "Tipo": "Unidade de Saúde da Familia ", "UnidadeSaude": "Usf Vila Norma", "Endereco": "Rua Higino Marzo, Lote 1, Quadra F – Vila Norma – Cep: 25530-520", "Coordenadas": "-22.79161944983635, -43.40846135582213", "latitude": -22.79161944983635, "longitude": -43.408461355822133 }, "geometry": { "type": "Point", "coordinates": [ -43.408461355822133, -22.79161944983635 ] } },
{ "type": "Feature", "properties": { "Tipo": "Unidade de Saúde da Familia ", "UnidadeSaude": "Usf Vila Rosali", "Endereco": "Rua Dr. Mário Cabral, S/N – Vila Rosali – Cep: 25510-210", "Coordenadas": "-22.790115338601474, -43.37369464417828", "latitude": -22.790115338601474, "longitude": -43.373694644178279 }, "geometry": { "type": "Point", "coordinates": [ -43.373694644178279, -22.790115338601474 ] } },
{ "type": "Feature", "properties": { "Tipo": "Unidade de Saúde da Familia ", "UnidadeSaude": "Usf Vila Tiradentes", "Endereco": "Rua Dr. José De Carvalho, 162 – Vila Tiradentes – Cep: 25525-250", "Coordenadas": "-22.794643736556104, -43.383888157671315", "latitude": -22.794643736556104, "longitude": -43.383888157671315 }, "geometry": { "type": "Point", "coordinates": [ -43.383888157671315, -22.794643736556104 ] } },
{ "type": "Feature", "properties": { "Tipo": "Unidade de Saúde da Familia ", "UnidadeSaude": "Usf Vila União", "Endereco": "Rua Álvaro Proença, S/N – Vila União – Cep: 25530-100", "Coordenadas": "-22.810282939338943, -43.38557327301393", "latitude": -22.810282939338943, "longitude": -43.385573273013932 }, "geometry": { "type": "Point", "coordinates": [ -43.385573273013932, -22.810282939338943 ] } },
{ "type": "Feature", "properties": { "Tipo": "Secretaria Municipal de Súade ", "UnidadeSaude": "Centro De Saúde Dr. Aníbal Viriato De Azevedo", "Endereco": "Rua Pastor Joaquim Rosa, 26 – Jardim Meriti – Cep: 25555-681", "Coordenadas": "-22.77811210406982, -43.369534457671726", "latitude": -22.77811210406982, "longitude": -43.369534457671726 }, "geometry": { "type": "Point", "coordinates": [ -43.369534457671726, -22.77811210406982 ] } },
{ "type": "Feature", "properties": { "Tipo": "Secretaria Municipal de Súade ", "UnidadeSaude": "Centro De Saúde Jardim Sumaré", "Endereco": "Estrada Das Pedrinhas, S/N- Jardim Sumaré – Cep: 25580-000", "Coordenadas": "-22.781423892457255, -43.33428627116433", "latitude": -22.781423892457255, "longitude": -43.334286271164331 }, "geometry": { "type": "Point", "coordinates": [ -43.334286271164331, -22.781423892457255 ] } },
{ "type": "Feature", "properties": { "Tipo": "Hospital ", "UnidadeSaude": "Hospital Municipal De São João De Meriti Abdon Gonçalves", "Endereco": "Avenida Presidente Lincoln, S/N – Jardim Meriti – Cep 25555-200 – Jardim Meriti", "Coordenadas": "-22.780549215600452, -43.373155999999994", "latitude": -22.780549215600452, "longitude": -43.373156 }, "geometry": { "type": "Point", "coordinates": [ -43.373156, -22.780549215600452 ] } },
{ "type": "Feature", "properties": { "Tipo": "Centro de Atenção Psicossocial", "UnidadeSaude": "Centro De Atenção Psicossocial Álcool E Drogas Marinheiro João Cândido (Caps Ad)", "Endereco": "Rua Clara Costa, 19 – Centro – São João De Meriti – Cep: 25520-400 Jardim Meriti", "Coordenadas": "-22.802403696461344, -43.37470302883567", "latitude": -22.802403696461344, "longitude": -43.374703028835668 }, "geometry": { "type": "Point", "coordinates": [ -43.374703028835668, -22.802403696461344 ] } },
{ "type": "Feature", "properties": { "Tipo": "Centro de Atenção Psicossocial", "UnidadeSaude": "Centro De Atenção Psicossocial Iii Vonica (Caps III)", "Endereco": "Rua Cassilda, 1267 – Agostinho Porto–Cep: 25525-350", "Coordenadas": "-22.782583785698638, -43.38716727116434", "latitude": -22.782583785698638, "longitude": -43.387167271164337 }, "geometry": { "type": "Point", "coordinates": [ -43.387167271164337, -22.782583785698638 ] } },
{ "type": "Feature", "properties": { "Tipo": "Centro de Atenção Psicossocial", "UnidadeSaude": "Centro De Atenção Psicossocial Infanto-Juvenil Maninho (Capsij)", "Endereco": "Avenida Presidente Lincoln, 126 – Jardim Meriti – Cep: 25555-201", "Coordenadas": "-22.779691996447205, -43.37354581832732", "latitude": -22.779691996447205, "longitude": -43.373545818327322 }, "geometry": { "type": "Point", "coordinates": [ -43.373545818327322, -22.779691996447205 ] } },
{ "type": "Feature", "properties": { "Tipo": "Programa de Saúde ", "UnidadeSaude": "Programa Melhor Em Casa", "Endereco": "Avenida Presidente Lincoln, S/N (3º Andar) – Jardim Meriti – Cep: 25555-200", "Coordenadas": "-22.780559107529367, -43.373166728835656", "latitude": -22.780559107529367, "longitude": -43.373166728835656 }, "geometry": { "type": "Point", "coordinates": [ -43.373166728835656, -22.780559107529367 ] } },
{ "type": "Feature", "properties": { "Tipo": "Programa de Saúde ", "UnidadeSaude": "Programa Municipal Ist/Aids (No Centro De Saúde Dr. Aníbal Viriato De Azevedo", "Endereco": "Rua Pastor Joaquim Rosa, 26 – Jardim Meriti – Cep 25555-681", "Coordenadas": "-22.778121996175457, -43.36954518650696", "latitude": -22.778121996175457, "longitude": -43.369545186506961 }, "geometry": { "type": "Point", "coordinates": [ -43.369545186506961, -22.778121996175457 ] } },
{ "type": "Feature", "properties": { "Tipo": "Programa de Saúde ", "UnidadeSaude": "Programa Municipal De Ostomizados (No Cer Ii)", "Endereco": "Rua Iracema Com Rua Estrela Dalva, S/N – Parque Novo Rio – Cep:25580-245", "Coordenadas": "-22.79408565386188, -43.33952975952089", "latitude": -22.794085653861881, "longitude": -43.339529759520893 }, "geometry": { "type": "Point", "coordinates": [ -43.339529759520893, -22.794085653861881 ] } },
{ "type": "Feature", "properties": { "Tipo": "Programa de Saúde ", "UnidadeSaude": "Programa Municipal De Tuberculose (No Centro De Saúde Dr. Aníbal Viriato De Azevedo)", "Endereco": "Rua Pastor Joaquim Rosa, 26 – Jardim Meriti – Cep 25555-681", "Coordenadas": "-22.778121996175457, -43.36949154232868", "latitude": -22.778121996175457, "longitude": -43.369491542328682 }, "geometry": { "type": "Point", "coordinates": [ -43.369491542328682, -22.778121996175457 ] } },
{ "type": "Feature", "properties": { "Tipo": "Programa de Saúde ", "UnidadeSaude": "Superintendência De Programas", "Endereco": "Avenida Presidente Lincoln, S/N (3º Andar) – Jardim Meriti – Cep: 25555-200", "Coordenadas": "-22.780529431740465, -43.373166728835656", "latitude": -22.780529431740465, "longitude": -43.373166728835656 }, "geometry": { "type": "Point", "coordinates": [ -43.373166728835656, -22.780529431740465 ] } },
{ "type": "Feature", "properties": { "Tipo": "Residencia Terapêuticas ", "UnidadeSaude": "Residência Terapêutica Kiwi", "Endereco": "Rua São Gonçalo, 60 – Vila São João – Cep 25570-060", "Coordenadas": "-22.771909987844918, -43.35547081349302", "latitude": -22.771909987844918, "longitude": -43.355470813493021 }, "geometry": { "type": "Point", "coordinates": [ -43.355470813493021, -22.771909987844918 ] } },
{ "type": "Feature", "properties": { "Tipo": "Residencia Terapêuticas ", "UnidadeSaude": "Residência Terapêutica Acerola", "Endereco": "Rua Juiz Moacir Marques Morado, 83 – Centro – São João De Meriti – Cep 25520-391", "Coordenadas": "-22.803752059873748, -43.37421911534223", "latitude": -22.803752059873748, "longitude": -43.374219115342228 }, "geometry": { "type": "Point", "coordinates": [ -43.374219115342228, -22.803752059873748 ] } },
{ "type": "Feature", "properties": { "Tipo": "Orgãos Reguladores", "UnidadeSaude": "Ouvidoria Da Semus", "Endereco": "Avenida Presidente Lincoln, S/N (3º Andar) – Jardim Meriti – Cep: 25555-200", "Coordenadas": "-22.780519539809376, -43.37325255952089", "latitude": -22.780519539809376, "longitude": -43.373252559520893 }, "geometry": { "type": "Point", "coordinates": [ -43.373252559520893, -22.780519539809376 ] } },
{ "type": "Feature", "properties": { "Tipo": "Orgãos Reguladores", "UnidadeSaude": "Vigilância Sanitária", "Endereco": "Rua Adelino Gonçalves, 100 – Coelho Da Rocha – Cep: 25550-090 – Coelho Da Rocha", "Coordenadas": "-22.774299991049745, -43.39216545767131", "latitude": -22.774299991049745, "longitude": -43.392165457671311 }, "geometry": { "type": "Point", "coordinates": [ -43.392165457671311, -22.774299991049745 ] } },
{ "type": "Feature", "properties": { "Tipo": "Atenção Especializada ", "UnidadeSaude": "Centro De Especialidade Odontológica – Ceo Ii – Anexo Ao Centro De Saúde Dr. Aníbal Viriato De Azevedo", "Endereco": "Rua Pastor Joaquim Rosa, 26 – Jardim Meriti – Cep: 25550-681", "Coordenadas": "-22.78058878331183, -43.373155999999994", "latitude": -22.780588783311831, "longitude": -43.373156 }, "geometry": { "type": "Point", "coordinates": [ -43.373156, -22.780588783311831 ] } },
{ "type": "Feature", "properties": { "Tipo": "Atenção Especializada ", "UnidadeSaude": "Centro De Imagem De São João De Meriti (Cid) – Anexo Ao Hmsjm", "Endereco": "Avenida Presidente Lincoln, S/N – Jardim Meriti – Cep: 25555-200", "Coordenadas": "-22.780549215600452, -43.37313454232869", "latitude": -22.780549215600452, "longitude": -43.373134542328692 }, "geometry": { "type": "Point", "coordinates": [ -43.373134542328692, -22.780549215600452 ] } },
{ "type": "Feature", "properties": { "Tipo": "Atenção Especializada ", "UnidadeSaude": "Centro De Prevenção E Diagnóstico Em Oncologia (Cpdo)", "Endereco": "Rua Valério Vilas Boas, 11 – Centro – São João De Meriti – Cep: 25520-090", "Coordenadas": "-22.80430568525443, -43.37187337546239", "latitude": -22.80430568525443, "longitude": -43.371873375462393 }, "geometry": { "type": "Point", "coordinates": [ -43.371873375462393, -22.80430568525443 ] } },
{ "type": "Feature", "properties": { "Tipo": "Atenção Especializada ", "UnidadeSaude": "Centro Especializado Em Reabilitação Ii Norma Bastos Fernandes (Cer Iii)", "Endereco": "Rua Iracema Com Rua Estrela Dalva, S/N – Parque Novo Rio – Cep: 25580245", "Coordenadas": "-22.79409554480906, -43.33949757301392", "latitude": -22.794095544809061, "longitude": -43.339497573013922 }, "geometry": { "type": "Point", "coordinates": [ -43.339497573013922, -22.794095544809061 ] } }
]
}
